{"countries": [
  {"name": "Afghanistan", "capital": "Kabul", "lat": 34.52, "lon": 69.18},
  {"name": "Albania", "capital": "Tirana", "lat": 41.32, "lon": 19.82},
  {"name": "Algeria", "capital": "Algiers", "lat": 36.75, "lon": 3.05},
  {"name": "Andorra", "capital": "Andorra la Vella", "lat": 42.5, "lon": 1.52},
  {"name": "Angola", "capital": "Luanda", "lat": -8.83, "lon": 13.22},
  {"name": "Argentina", "capital": "Buenos Aires", "lat": -34.58, "lon": -58.67},
  {"name": "Armenia", "capital": "Yerevan", "lat": 40.17, "lon": 44.5},
  {"name": "Australia", "capital": "Canberra", "lat": -35.27, "lon": 149.13},
  {"name": "Austria", "capital": "Vienna", "lat": 48.2, "lon": 16.37},
  {"name": "Azerbaijan", "capital": "Baku", "lat": 40.38, "lon": 49.87},
  {"name": "Azores", "capital": "Sao Jorge", "lat": 38.62620608203304, "lon": -28.00028350752214},
  {"name": "Bahamas", "capital": "Nassau", "lat": 25.08, "lon": -77.35},
  {"name": "Bahrain", "capital": "Manama", "lat": 26.23, "lon": 50.57},
  {"name": "Bangladesh", "capital": "Dhaka", "lat": 23.72, "lon": 90.4},
  {"name": "Barbados", "capital": "Bridgetown", "lat": 13.1, "lon": -59.62},
  {"name": "Belarus", "capital": "Minsk", "lat": 53.9, "lon": 27.57},
  {"name": "Belgium", "capital": "Brussels", "lat": 50.83, "lon": 4.33},
  {"name": "Belize", "capital": "Belmopan", "lat": 17.25, "lon": -88.77},
  {"name": "Benin", "capital": "Porto-Novo", "lat": 6.48, "lon": 2.62},
  {"name": "Bermuda", "capital": "Hamilton", "lat": 32.28, "lon": -64.78},
  {"name": "Bhutan", "capital": "Thimphu", "lat": 27.47, "lon": 89.63},
  {"name": "Bolivia", "capital": "Sucre", "lat": -19.02, "lon": -65.26},
  {"name": "Bosnia Herzegovina", "capital": "Sarajevo", "lat": 43.85584579837177, "lon": 18.41318305127353},
  {"name": "Botswana", "capital": "Gaborone", "lat": -24.63, "lon": 25.9},
  {"name": "Brazil", "capital": "Brasília", "lat": -15.79, "lon": -47.88},
  {"name": "Brunei", "capital": "Bandar Seri Begawan", "lat": 4.88, "lon": 114.93},
  {"name": "Bulgaria", "capital": "Sofia", "lat": 42.68, "lon": 23.32},
  {"name": "Burkina", "capital": "Bobo-Dioulasso", "lat": 11.172307633349698, "lon": -4.308347540701227},
  {"name": "Burundi", "capital": "Gitega", "lat": -3.43, "lon": 29.93},
  {"name": "Cambodia", "capital": "Phnom Penh", "lat": 11.55, "lon": 104.92},
  {"name": "Cameroon", "capital": "Yaoundé", "lat": 3.85, "lon": 11.5},
  {"name": "Canada", "capital": "Ottawa", "lat": 45.42, "lon": -75.7},
  {"name": "Cape Verde", "capital": "Praia", "lat": 14.919416478615283, "lon": -23.50755146084287},
  {"name": "Central African Republic", "capital": "Bangui", "lat": 4.393730835461753, "lon": 18.534206198993765},
  {"name": "Chad", "capital": "N'Djamena", "lat": 12.1, "lon": 15.03},
  {"name": "Chile", "capital": "Santiago", "lat": -33.45, "lon": -70.67},
  {"name": "China", "capital": "Beijing", "lat": 39.92, "lon": 116.38},
  {"name": "Colombia", "capital": "Bogotá", "lat": 4.71, "lon": -74.07},
  {"name": "Comoros", "capital": "Moroni", "lat": -11.7, "lon": 43.23},
  {"name": "Congo", "capital": "Brazzaville", "lat": -4.264979921515156, "lon": 15.27155230543182},
  {"name": "Cook Islands", "capital": "", "lat": -21.24072625430458, "lon": -159.77644598162374},
  {"name": "Costa Rica", "capital": "San Jose", "lat": 9.95196271809448, "lon": -84.10970394722165},
  {"name": "Croatia", "capital": "Zagreb", "lat": 45.8, "lon": 16.0},
  {"name": "Cuba", "capital": "Havana", "lat": 23.12, "lon": -82.35},
  {"name": "Cyprus", "capital": "Nicosia", "lat": 35.17, "lon": 33.37},
  {"name": "Czech Republic", "capital": "Prague", "lat": 50.07911882492595, "lon": 14.44715748969851},
  {"name": "Denmark", "capital": "Copenhagen", "lat": 55.67, "lon": 12.58},
  {"name": "Djibouti", "capital": "Djibouti", "lat": 11.58, "lon": 43.15},
  {"name": "Dominica", "capital": "Roseau", "lat": 15.3, "lon": -61.4},
  {"name": "Dominican Republic", "capital": "Santo Domingo", "lat": 18.51430262389082, "lon": -69.95526625393578},
  {"name": "East Timor", "capital": "", "lat": -8.712814856786611, "lon": 125.88205385219236},
  {"name": "Ecuador", "capital": "Quito", "lat": -0.22, "lon": -78.5},
  {"name": "Egypt", "capital": "Cairo", "lat": 30.05, "lon": 31.25},
  {"name": "El Salvador", "capital": "San Salvador", "lat": 13.696072594810051, "lon": -89.22300660160542},
  {"name": "Equatorial Guinea", "capital": "Ciudad de la Paz", "lat": 1.5959428700047924, "lon": 10.828613219553754},
  {"name": "Eritrea", "capital": "Asmara", "lat": 15.33, "lon": 38.93},
  {"name": "Estonia", "capital": "Tallinn", "lat": 59.43, "lon": 24.72},
  {"name": "Ethiopia", "capital": "Addis Ababa", "lat": 9.03, "lon": 38.7},
  {"name": "Fiji", "capital": "Suva", "lat": -18.13, "lon": 178.42},
  {"name": "Finland", "capital": "Helsinki", "lat": 60.17, "lon": 24.93},
  {"name": "France", "capital": "Paris", "lat": 48.87, "lon": 2.33},
  {"name": "Gabon", "capital": "Libreville", "lat": 0.38, "lon": 9.45},
  {"name": "Gambia", "capital": "Banjul", "lat": 13.45, "lon": -16.57},
  {"name": "Georgia", "capital": "Tbilisi", "lat": 41.68, "lon": 44.83},
  {"name": "Germany", "capital": "Berlin", "lat": 52.52, "lon": 13.4},
  {"name": "Ghana", "capital": "Accra", "lat": 5.55, "lon": -0.22},
  {"name": "Greece", "capital": "Athens", "lat": 37.98, "lon": 23.73},
  {"name": "Grenada", "capital": "St. George's", "lat": 32.38, "lon": -64.68},
  {"name": "Guatemala", "capital": "Guatemala City", "lat": 14.62, "lon": -90.52},
  {"name": "Guinea", "capital": "Conakry", "lat": 9.5, "lon": -13.7},
  {"name": "Guinea-Bissau", "capital": "Bissau", "lat": 11.85, "lon": -15.58},
  {"name": "Guyana", "capital": "Georgetown", "lat": 6.8, "lon": -58.15},
  {"name": "Haiti", "capital": "Port-au-Prince", "lat": 18.53, "lon": -72.33},
  {"name": "Honduras", "capital": "Tegucigalpa", "lat": 14.1, "lon": -87.22},
  {"name": "Hungary", "capital": "Budapest", "lat": 47.5, "lon": 19.08},
  {"name": "Iceland", "capital": "Reykjavik", "lat": 64.15, "lon": -21.95},
  {"name": "India", "capital": "New Delhi", "lat": 28.6, "lon": 77.2},
  {"name": "Indonesia", "capital": "Jakarta", "lat": -6.17, "lon": 106.82},
  {"name": "Iran", "capital": "Tehran", "lat": 35.7, "lon": 51.42},
  {"name": "Iraq", "capital": "Baghdad", "lat": 33.33, "lon": 44.4},
  {"name": "Ireland", "capital": "Dublin", "lat": 53.32, "lon": -6.23},
  {"name": "Israel", "capital": "Jerusalem", "lat": 31.77, "lon": 35.23},
  {"name": "Italy", "capital": "Rome", "lat": 41.9, "lon": 12.48},
  {"name": "Ivory Coast", "capital": "Yamoussoukro", "lat": 6.783309108092414, "lon": -5.277598987761062},
  {"name": "Jamaica", "capital": "Kingston", "lat": 17.99702, "lon": -76.79358},
  {"name": "Japan", "capital": "Tokyo", "lat": 35.68, "lon": 139.75},
  {"name": "Jordan", "capital": "Amman", "lat": 31.95, "lon": 35.93},
  {"name": "Kazakhstan", "capital": "Nur-Sultan", "lat": 51.16, "lon": 71.45},
  {"name": "Kenya", "capital": "Nairobi", "lat": -1.28, "lon": 36.82},
  {"name": "Kiribati", "capital": "South Tarawa", "lat": 1.33, "lon": 172.98},
  {"name": "Kosovo", "capital": "Pristina", "lat": 42.67, "lon": 21.17},
  {"name": "Kuwait", "capital": "Kuwait City", "lat": 29.37, "lon": 47.97},
  {"name": "Kyrgyzstan", "capital": "Bishkek", "lat": 42.87, "lon": 74.6},
  {"name": "Laos", "capital": "Vientiane", "lat": 17.97, "lon": 102.6},
  {"name": "Latvia", "capital": "Riga", "lat": 56.95, "lon": 24.1},
  {"name": "Lebanon", "capital": "Beirut", "lat": 33.87, "lon": 35.5},
  {"name": "Lesotho", "capital": "Maseru", "lat": -29.32, "lon": 27.48},
  {"name": "Liberia", "capital": "Monrovia", "lat": 6.3, "lon": -10.8},
  {"name": "Libya", "capital": "Tripoli", "lat": 32.88, "lon": 13.17},
  {"name": "Liechtenstein", "capital": "Vaduz", "lat": 47.13, "lon": 9.52},
  {"name": "Lithuania", "capital": "Vilnius", "lat": 54.68, "lon": 25.32},
  {"name": "Luxembourg", "capital": "Luxembourg", "lat": 49.6, "lon": 6.12},
  {"name": "Macedonia", "capital": "Skopje Скопје", "lat": 42.00135702546348, "lon": 21.425230787768584},
  {"name": "Madagascar", "capital": "Antananarivo", "lat": -18.92, "lon": 47.52},
  {"name": "Malawi", "capital": "Lilongwe", "lat": -13.97, "lon": 33.78},
  {"name": "Malaysia", "capital": "Kuala Lumpur", "lat": 3.17, "lon": 101.7},
  {"name": "Maldives", "capital": "Malé", "lat": 4.17, "lon": 73.51},
  {"name": "Mali", "capital": "Bamako", "lat": 12.65, "lon": -8.0},
  {"name": "Malta", "capital": "Valletta", "lat": 35.88, "lon": 14.5},
  {"name": "Marshall Islands", "capital": "Delap-Uliga-Djarrit", "lat": 7.091886692558867, "lon": 171.38079325005344},
  {"name": "Mauritania", "capital": "Nouakchott", "lat": 18.07, "lon": -15.97},
  {"name": "Mauritius", "capital": "Port Louis", "lat": -20.15, "lon": 57.48},
  {"name": "Mexico", "capital": "Mexico City", "lat": 19.43, "lon": -99.13},
  {"name": "Micronesia", "capital": "Palikir", "lat": 6.92, "lon": 158.15},
  {"name": "Moldova", "capital": "Chișinău", "lat": 47.01, "lon": 28.9},
  {"name": "Monaco", "capital": "Monaco", "lat": 43.73, "lon": 7.42},
  {"name": "Mongolia", "capital": "Ulan Bator", "lat": 47.92, "lon": 106.91},
  {"name": "Montenegro", "capital": "Podgorica", "lat": 42.43, "lon": 19.27},
  {"name": "Morocco", "capital": "Rabat", "lat": 34.02, "lon": -6.82},
  {"name": "Mozambique", "capital": "Maputo", "lat": -25.95, "lon": 32.58},
  {"name": "Myanmar", "capital": "Naypyidaw", "lat": 19.794975942416617, "lon": 96.13034926438077},
  {"name": "Namibia", "capital": "Windhoek", "lat": -22.57, "lon": 17.08},
  {"name": "Nauru", "capital": "Yaren", "lat": -0.55, "lon": 166.92},
  {"name": "Nepal", "capital": "Kathmandu", "lat": 27.72, "lon": 85.32},
  {"name": "Netherlands", "capital": "Amsterdam", "lat": 52.35, "lon": 4.92},
  {"name": "New Zealand", "capital": "Wellington", "lat": -41.27041553723062, "lon": 174.66607200743488},
  {"name": "Nicaragua", "capital": "Managua", "lat": 12.13, "lon": -86.25},
  {"name": "Niger", "capital": "Niamey", "lat": 13.52, "lon": 2.12},
  {"name": "Nigeria", "capital": "Abuja", "lat": 9.08, "lon": 7.53},
  {"name": "North Korea", "capital": "Pyongyang", "lat": 39.035493749032156, "lon": 125.76245205471133},
  {"name": "Norway", "capital": "Oslo", "lat": 59.92, "lon": 10.75},
  {"name": "Oman", "capital": "Muscat", "lat": 23.62, "lon": 58.58},
  {"name": "Pakistan", "capital": "Islamabad", "lat": 33.68, "lon": 73.05},
  {"name": "Palau", "capital": "Ngerulmud", "lat": 7.5, "lon": 134.62},
  {"name": "Panama", "capital": "Panama City", "lat": 8.97, "lon": -79.53},
  {"name": "Papua New Guinea", "capital": "Port Moresby", "lat": -9.439411409344318, "lon": 147.14879330836888},
  {"name": "Paraguay", "capital": "Asunción", "lat": -25.28, "lon": -57.57},
  {"name": "Peru", "capital": "Lima", "lat": -12.05, "lon": -77.05},
  {"name": "Philippines", "capital": "Manila", "lat": 14.6, "lon": 120.97},
  {"name": "Poland", "capital": "Warsaw", "lat": 52.25, "lon": 21.0},
  {"name": "Portugal", "capital": "Lisbon", "lat": 38.72, "lon": -9.13},
  {"name": "Qatar", "capital": "Doha", "lat": 25.28, "lon": 51.53},
  {"name": "Romania", "capital": "Bucharest", "lat": 44.43, "lon": 26.1},
  {"name": "Russia", "capital": "Moscow", "lat": 55.75, "lon": 37.6},
  {"name": "Rwanda", "capital": "Kigali", "lat": -1.95, "lon": 30.05},
  {"name": "St Kitts & Nevis", "capital": "Basseterre", "lat": 17.303297048458308, "lon": -62.71927376857069},
  {"name": "St Lucia", "capital": "", "lat": 13.878803418995396, "lon": -60.970916623687536},
  {"name": "Saint Vincent & the Grenadines", "capital": "", "lat": 13.254921011142713, "lon": -61.1941961855319},
  {"name": "Samoa", "capital": "Apia", "lat": -13.82, "lon": -171.77},
  {"name": "San Marino", "capital": "", "lat": 43.93335245609056, "lon": 12.46180918730245},
  {"name": "Sao Tome & Principe", "capital": "", "lat": 0.26328224765026137, "lon": 6.601673284143981},
  {"name": "Saudi Arabia", "capital": "Riyadh", "lat": 24.670992616579912, "lon": 46.77009774001678},
  {"name": "Senegal", "capital": "Dakar", "lat": 14.73, "lon": -17.63},
  {"name": "Serbia", "capital": "Belgrade", "lat": 44.83, "lon": 20.5},
  {"name": "Seychelles", "capital": "Victoria", "lat": -4.62, "lon": 55.45},
  {"name": "Sierra Leone", "capital": "Freetown", "lat": 8.47985466087891, "lon": -13.222829827339837},
  {"name": "Singapore", "capital": "Singapore", "lat": 1.28, "lon": 103.85},
  {"name": "Slovakia", "capital": "Bratislava", "lat": 48.15, "lon": 17.12},
  {"name": "Slovenia", "capital": "Ljubljana", "lat": 46.05, "lon": 14.52},
  {"name": "Solomon Islands", "capital": "", "lat": -9.649511188631775, "lon": 160.0749090966878},
  {"name": "Somalia", "capital": "Mogadishu", "lat": 2.07, "lon": 45.33},
  {"name": "South Africa", "capital": "Belomfontein", "lat": -29.159357767250366, "lon": 26.20922383130973},
  {"name": "South Korea", "capital": "Seoul", "lat": 37.54952016575874, "lon": 126.97412741352308},
  {"name": "South Sudan", "capital": "Juba", "lat": 4.854361490865419, "lon": 31.582338099896607},
  {"name": "Spain", "capital": "Madrid", "lat": 40.4, "lon": -3.68},
  {"name": "Sri Lanka", "capital": "Colombo", "lat": 6.9299032457542085, "lon": 79.86713572764106},
  {"name": "Sudan", "capital": "Khartoum", "lat": 15.6, "lon": 32.53},
  {"name": "Suriname", "capital": "Paramaribo", "lat": 5.83, "lon": -55.17},
  {"name": "Swaziland", "capital": "Mbabane", "lat": -26.315355, "lon": 31.0959855},
  {"name": "Sweden", "capital": "Stockholm", "lat": 59.33, "lon": 18.05},
  {"name": "Switzerland", "capital": "Bern", "lat": 46.92, "lon": 7.47},
  {"name": "Syria", "capital": "Damascus", "lat": 33.5, "lon": 36.3},
  {"name": "Taiwan", "capital": "Taipei", "lat": 25.03, "lon": 121.52},
  {"name": "Tajikistan", "capital": "Dushanbe", "lat": 38.55, "lon": 68.77},
  {"name": "Tanzania", "capital": "Dodoma", "lat": -6.16, "lon": 35.75},
  {"name": "Thailand", "capital": "Bangkok", "lat": 13.75, "lon": 100.52},
  {"name": "Togo", "capital": "Lomé", "lat": 6.14, "lon": 1.21},
  {"name": "Tonga", "capital": "Nuku'alofa", "lat": -21.13, "lon": -175.2},
  {"name": "Trinidad & Tobago", "capital": "Port of Spain", "lat": 10.696008, "lon": -61.871129},
  {"name": "Tunisia", "capital": "Tunis", "lat": 36.8, "lon": 10.18},
  {"name": "Turkey", "capital": "Ankara", "lat": 39.93, "lon": 32.87},
  {"name": "Turkmenistan", "capital": "Ashgabat", "lat": 37.95, "lon": 58.38},
  {"name": "Tuvalu", "capital": "Funafuti", "lat": -8.52, "lon": 179.22},
  {"name": "Uganda", "capital": "Kampala", "lat": 0.32, "lon": 32.55},
  {"name": "Ukraine", "capital": "Kyiv", "lat": 50.43, "lon": 30.52},
  {"name": "United Arab Emirates", "capital": "Abu Dhabi", "lat": 24.34, "lon": 52.62},
  {"name": "United Kingdom", "capital": "London", "lat": 51.50, "lon":  -0.12},
  {"name": "United States", "capital": "Washington DC", "lat": 38.90, "lon": -77.03},
  {"name": "Uruguay", "capital": "Montevideo", "lat": -34.85, "lon": -56.17},
  {"name": "Uzbekistan", "capital": "Tashkent", "lat": 41.32, "lon": 69.25},
  {"name": "Vanuatu", "capital": "Port Vila", "lat": -17.73, "lon": 168.32},
  {"name": "Vatican City", "capital": "Vatican City", "lat": 41.9038128, "lon": 12.4469068},
  {"name": "Venezuela", "capital": "Caracas", "lat": 10.48, "lon": -66.87},
  {"name": "Vietnam", "capital": "Hanoi", "lat": 21.03, "lon": 105.85},
  {"name": "Yemen", "capital": "Sana'a", "lat": 15.37, "lon": 44.19},
  {"name": "Zambia", "capital": "Lusaka", "lat": -15.42, "lon": 28.28},
  {"name": "Zimbabwe", "capital": "Harare", "lat": -17.82, "lon": 31.03}
]}
